[
  {
    "name": "Renfe",
    "operator_type": "train",
    "region": "Norte (nacional)",
    "policy_url": "https://www.renfe.com/es/es/viajar/informacion-util/mascotas",
    "source": "official",
    "status": "verified",
    "lon": -3.7038,
    "lat": 40.4168,
    "notes": "Normativa oficial de viaje con mascotas."
  },
  {
    "name": "ALSA",
    "operator_type": "bus",
    "region": "Norte (nacional)",
    "policy_url": "https://www.alsa.es/tu-viaje/accesibilidad/transporte-mascotas",
    "source": "official",
    "status": "verified",
    "lon": -3.7038,
    "lat": 40.4168,
    "notes": "Normativa oficial de transporte de animales de compañía."
  },
  {
    "name": "Metro Bilbao",
    "operator_type": "metro",
    "region": "Bizkaia",
    "policy_url": "https://cms.metrobilbao.eus/sites/default/files/2024-03/metro%20condiciones_2024_1.pdf",
    "source": "official",
    "status": "verified",
    "lon": -2.9349,
    "lat": 43.2630,
    "notes": "Condiciones generales con apartado específico para perros y gatos."
  },
  {
    "name": "Bilbobus",
    "operator_type": "bus",
    "region": "Bizkaia (Bilbao)",
    "policy_url": "https://www.bilbao.eus/cs/Satellite/bilbobus/es/reglamento-bilbobus",
    "source": "official",
    "status": "verified",
    "lon": -2.9349,
    "lat": 43.2630,
    "notes": "Reglamento del servicio público de transporte urbano de viajeros y viajeras por autobús."
  },
  {
    "name": "Bizkaibus",
    "operator_type": "bus",
    "region": "Bizkaia",
    "policy_url": "https://www.bizkaia.eus/es/web/bizkaibus/accesibilidad/mascotas",
    "source": "official",
    "status": "verified",
    "lon": -2.9349,
    "lat": 43.2630,
    "notes": "Condiciones para transporte de mascotas en Bizkaibus."
  },
  {
    "name": "Lurraldebus (MUGI)",
    "operator_type": "bus",
    "region": "Gipuzkoa",
    "policy_url": "https://www.mugi.eus/index.php/en/reglamento-y-condiciones-generales",
    "source": "official",
    "status": "verified",
    "lon": -1.9812,
    "lat": 43.3230,
    "notes": "Reglamento con anexos de acceso de animales de compañía."
  },
  {
    "name": "Dbus Donostia",
    "operator_type": "bus",
    "region": "Gipuzkoa (Donostia)",
    "policy_url": "https://www.dbus.eus/wp-content/uploads/2020/06/Reglamento-SS-es.pdf",
    "source": "official",
    "status": "verified",
    "lon": -1.9812,
    "lat": 43.3230,
    "notes": "Reglamento de transporte urbano de Donostia-San Sebastián."
  },
  {
    "name": "Ekialdebus",
    "operator_type": "bus",
    "region": "Gipuzkoa",
    "policy_url": "https://ekialdebus.eus/es/reglamento/",
    "source": "operator",
    "status": "verified",
    "lon": -1.9812,
    "lat": 43.3230,
    "notes": "Reglamento de transporte del T.H. de Gipuzkoa con artículo de animales."
  },
  {
    "name": "Tolosaldeabus",
    "operator_type": "bus",
    "region": "Gipuzkoa",
    "policy_url": "https://tolosaldeabus.net/reglamento-de-transporte/",
    "source": "operator",
    "status": "verified",
    "lon": -2.0711,
    "lat": 43.1364,
    "notes": "Reglamento de transporte con anexo de animales de compañía."
  },
  {
    "name": "Euskotren",
    "operator_type": "rail/tram",
    "region": "País Vasco",
    "policy_url": "https://www.euskotren.eus/es/atencion-la-clientela/derechos-y-obligaciones-de-la-persona-viajera",
    "source": "official",
    "status": "verified",
    "lon": -2.6760,
    "lat": 43.2609,
    "notes": "Condiciones generales con admisión de animales domésticos."
  },
  {
    "name": "TUVISA Vitoria-Gasteiz",
    "operator_type": "bus",
    "region": "Álava (Vitoria-Gasteiz)",
    "policy_url": "https://www.vitoria-gasteiz.org/http/wb021/contenidosEstaticos/adjuntos/es/97/53/29753.pdf",
    "source": "official",
    "status": "verified",
    "lon": -2.6736,
    "lat": 42.8506,
    "notes": "Reglamento para la prestación del servicio de transporte urbano colectivo."
  },
  {
    "name": "EMTUSA Gijón",
    "operator_type": "bus",
    "region": "Asturias (Gijón)",
    "policy_url": "https://bus.gijon.es",
    "source": "operator",
    "status": "needs_review",
    "lon": -5.6615,
    "lat": 43.5322,
    "notes": "Web oficial del operador; falta localizar reglamento oficial con condiciones de mascotas (posible BOPA)."
  },
  {
    "name": "TUA Oviedo",
    "operator_type": "bus",
    "region": "Asturias (Oviedo)",
    "policy_url": "https://www.tua.es/recursos/doc/alsatua/20140905/avisos/reglamento-servicio-publico-transporte-urbano-oviedo.pdf",
    "source": "official",
    "status": "verified",
    "lon": -5.8448,
    "lat": 43.3619,
    "notes": "Reglamento del Servicio Público de Transporte Urbano (BOPA 02/05/2019)."
  },
  {
    "name": "TUS Santander",
    "operator_type": "bus",
    "region": "Cantabria (Santander)",
    "policy_url": "https://www.santander.es/system/files/noticias/anexos/2023/02/publicacion_boc_ordenanza_definitiva_23_enero_2023.pdf",
    "source": "official",
    "status": "verified",
    "lon": -3.80998,
    "lat": 43.4623,
    "notes": "Ordenanza reguladora del servicio de transporte urbano (BOC 23/01/2023)."
  },
  {
    "name": "Tranvías A Coruña",
    "operator_type": "bus",
    "region": "Galicia (A Coruña)",
    "policy_url": "https://www.visitcoruna.com/turismo/es/prepara-tu-viaje/con-mascota/informacion-practica-con-mascotas",
    "source": "official",
    "status": "verified",
    "lon": -8.4092,
    "lat": 43.3709,
    "notes": "Información turística oficial con condiciones para mascotas en bus urbano."
  },
  {
    "name": "TUC Pamplona (MCP)",
    "operator_type": "bus",
    "region": "Navarra",
    "policy_url": "https://www.pamplona.es/ayuntamiento/varios/ordenanzas-sanidad-no-13-reguladora-de-la-tenencia-de-animales",
    "source": "official",
    "status": "verified",
    "lon": -1.6442,
    "lat": 42.8125,
    "notes": "Ordenanza municipal que indica las condiciones de transporte de animales en el TUC (transportín y peso máximo)."
  },
  {
    "name": "TUSSA Santiago",
    "operator_type": "bus",
    "region": "Galicia (Santiago)",
    "policy_url": "https://tussa.gal/sites/default/files/pagina_basica/Ordenanza%20Tte.Urbano%20Santiago%20BOP%202014-08-04_0.pdf",
    "source": "official",
    "status": "verified",
    "lon": -8.5448,
    "lat": 42.8782,
    "notes": "Ordenanza del transporte urbano publicada en BOP A Coruña (2014)."
  },
  {
    "name": "Vitrasa Vigo",
    "operator_type": "bus",
    "region": "Galicia",
    "policy_url": "https://hola-vigo.avanzagrupo.com/hc/es-es/articles/42175194318100--Qu%C3%A9-animales-pueden-viajar-en-el-autob%C3%BAs-y-bajo-qu%C3%A9-condiciones",
    "source": "operator",
    "status": "verified",
    "lon": -8.7207,
    "lat": 42.2406,
    "notes": "Condiciones oficiales para animales según reglamento de Vitrasa."
  }
]
